[
  {
    "global_id": 1699129,
    "DepartmentalAffiliation": "Департамент жилищно-коммунального хозяйства и благоустройства города Москвы",
    "ID": 1,
    "ClarificationOfWorkingHours": "Посещение приюта(по предварительному согласованию  с администрацией приюта): Вторник- Четверг- 13:00 до 17:00; Суббота- Воскресенье- с 13:00 до 17:00; в летний период (май - август) часы посещения волонтеров по постоянным пропускам продлеваются до 19:00; допуск на территорию приюта с целью выбора животного: среда- воскресенье с 09:00 до 17:00. Понедельник и пятница - санитарные дни.\nПраздничные дни  - с 13:00 до 17:00\nПередача животных новым владельцам по Договору осуществляется(в т.ч. праздничные дни):\nПонедельник- Воскресенье- с 09:00 до 17:00 (через Администрацию приюта)\nПонедельник -Воскресенье- с 17:00-до 19:00 (при наличии копий договоров, с передачей животного в присутствии ответственного рабочего, закрепленного за животными). ",
    "AdmArea": "Восточный административный округ",
    "District": "район Вешняки",
    "Address": "город Москва, Рассветная аллея, дом 10",
    "Phone": [
      {
        "Phone": "(909) 918-59-23"
      }
    ],
    "ChiefName": "Дружинин Алексей Михайлович",
    "WorkingHours": [
      {
        "Hours": "08:00-20:00",
        "DayOfWeek": "понедельник"
      },
      {
        "Hours": "08:00-20:00",
        "DayOfWeek": "вторник"
      },
      {
        "Hours": "08:00-20:00",
        "DayOfWeek": "среда"
      },
      {
        "Hours": "08:00-20:00",
        "DayOfWeek": "четверг"
      },
      {
        "Hours": "08:00-20:00",
        "DayOfWeek": "пятница"
      },
      {
        "Hours": "08:00-20:00",
        "DayOfWeek": "суббота"
      },
      {
        "Hours": "08:00-20:00",
        "DayOfWeek": "воскресенье"
      }
    ],
    "Name": "Приют для бродячих животных № 1",
    "geoData": {
      "type": "Point",
      "coordinates": [
        37.798264578327,
        55.739763974496
      ]
    }
  },
  {
    "global_id": 1699130,
    "DepartmentalAffiliation": "Департамент жилищно-коммунального хозяйства и благоустройства города Москвы",
    "ID": 2,
    "ClarificationOfWorkingHours": "Посещение приюта(по предварительному согласованию  с администрацией приюта): Вторник- Четверг- 13:00 до 17:00; Суббота- Воскресенье- с 13:00 до 17:00; в летний период (май - август) часы посещения волонтеров по постоянным пропускам продлеваются до 19:00; допуск на территорию приюта с целью выбора животного: среда- воскресенье с 09:00 до 17:00. Понедельник и пятница - санитарные дни;\nПраздничные дни  - с 13:00 до 17:00\nПередача животных новым владельцам по Договору осуществляется(в т.ч. праздничные дни):\nПонедельник- Воскресенье- с 09:00 до 17:00 (через Администрацию приюта)\nПонедельник -Воскресенье- с 17:00-до 19:00 (при наличии копий договоров, с передачей животного в присутствии ответственного рабочего, закрепленного за животными). ",
    "AdmArea": "Зеленоградский административный округ",
    "District": "район Матушкино",
    "Address": "город Москва, город Зеленоград, Фирсановское шоссе, владение 5А",
    "Phone": [
      {
        "Phone": "(909) 918-59-24"
      }
    ],
    "ChiefName": "Игнатов Алексей Васильевич",
    "WorkingHours": [
      {
        "Hours": "08:00-20:00",
        "DayOfWeek": "понедельник"
      },
      {
        "Hours": "08:00-20:00",
        "DayOfWeek": "вторник"
      },
      {
        "Hours": "08:00-20:00",
        "DayOfWeek": "среда"
      },
      {
        "Hours": "08:00-20:00",
        "DayOfWeek": "четверг"
      },
      {
        "Hours": "08:00-20:00",
        "DayOfWeek": "пятница"
      },
      {
        "Hours": "08:00-20:00",
        "DayOfWeek": "суббота"
      },
      {
        "Hours": "08:00-20:00",
        "DayOfWeek": "воскресенье"
      }
    ],
    "Name": "Приют для бродячих животных № 4",
    "geoData": {
      "type": "Point",
      "coordinates": [
        37.264943879045,
        55.97757644175
      ]
    }
  },
  {
    "global_id": 61896897,
    "DepartmentalAffiliation": "Префектура Западного административного округа города Москвы",
    "ID": 2,
    "AdmArea": "Западный административный округ",
    "District": "район Солнцево",
    "Address": "город Москва, Родниковая улица, дом 22, строение 1",
    "Phone": [
      {
        "Phone": "(495) 783-26-04"
      }
    ],
    "ChiefName": "Архипова Е П",
    "WorkingHours": [
      {
        "Hours": "закрыто",
        "DayOfWeek": "понедельник"
      },
      {
        "Hours": "закрыто",
        "DayOfWeek": "вторник"
      },
      {
        "Hours": "10:00-15:45",
        "DayOfWeek": "среда"
      },
      {
        "Hours": "закрыто",
        "DayOfWeek": "четверг"
      },
      {
        "Hours": "закрыто",
        "DayOfWeek": "пятница"
      },
      {
        "Hours": "10:00-15:45",
        "DayOfWeek": "суббота"
      },
      {
        "Hours": "10:00-15:45",
        "DayOfWeek": "воскресенье"
      }
    ],
    "Name": "Приют для безнадзорных животных",
    "geoData": {
      "type": "Point",
      "coordinates": [
        37.383932656523,
        55.63345267769
      ]
    }
  },
  {
    "global_id": 167604457,
    "DepartmentalAffiliation": "Префектура Юго-Восточного административного округа города Москвы",
    "ID": 1,
    "AdmArea": "Юго-Восточный административный округ",
    "District": "район Некрасовка",
    "Address": "город Москва, 2-я Вольская улица, дом 17А, строение 3",
    "Phone": [
      {
        "Phone": "(495) 351-19-91"
      }
    ],
    "ChiefName": "Тушов Денис Владимирович",
    "WorkingHours": [
      {
        "Hours": "09:00-18:00",
        "DayOfWeek": "понедельник"
      },
      {
        "Hours": "09:00-18:00",
        "DayOfWeek": "вторник"
      },
      {
        "Hours": "09:00-18:00",
        "DayOfWeek": "среда"
      },
      {
        "Hours": "09:00-18:00",
        "DayOfWeek": "четверг"
      },
      {
        "Hours": "09:00-18:00",
        "DayOfWeek": "пятница"
      },
      {
        "Hours": "09:00-18:00",
        "DayOfWeek": "суббота"
      },
      {
        "Hours": "09:00-18:00",
        "DayOfWeek": "воскресенье"
      }
    ],
    "Name": "Приют для содержания безнадзорных и бесхозяйных животных № 12 Юго-Восточного административного округа",
    "geoData": {
      "type": "Point",
      "coordinates": [
        37.935538502407,
        55.687766725601
      ]
    }
  },
  {
    "global_id": 167604461,
    "DepartmentalAffiliation": "Префектура Юго-Восточного административного округа города Москвы",
    "ID": 2,
    "AdmArea": "Юго-Восточный административный округ",
    "District": "район Печатники",
    "Address": "город Москва, проектируемый проезд № 5112, дом 2, строение 1",
    "Phone": [
      {
        "Phone": "(495) 351-19-91"
      }
    ],
    "ChiefName": "Тушов Денис Владимирович",
    "WorkingHours": [
      {
        "Hours": "09:00-18:00",
        "DayOfWeek": "понедельник"
      },
      {
        "Hours": "09:00-18:00",
        "DayOfWeek": "вторник"
      },
      {
        "Hours": "09:00-18:00",
        "DayOfWeek": "среда"
      },
      {
        "Hours": "09:00-18:00",
        "DayOfWeek": "четверг"
      },
      {
        "Hours": "09:00-18:00",
        "DayOfWeek": "пятница"
      },
      {
        "Hours": "09:00-18:00",
        "DayOfWeek": "суббота"
      },
      {
        "Hours": "09:00-18:00",
        "DayOfWeek": "воскресенье"
      }
    ],
    "Name": "Приют для содержания безнадзорных и бесхозяйных животных № 13 Юго-Восточного административного округа",
    "geoData": {
      "type": "Point",
      "coordinates": [
        37.703159781866,
        55.667385014813
      ]
    }
  },
  {
    "global_id": 167615349,
    "DepartmentalAffiliation": "Префектура Северного административного округа города Москвы",
    "ID": 1,
    "ClarificationOfWorkingHours": "Понедельник санитарный день",
    "AdmArea": "Северо-Западный административный округ",
    "District": "район Куркино",
    "Address": "город Москва, Машкинское шоссе, владение 2",
    "Phone": [
      {
        "Phone": "(495) 456-74-63"
      }
    ],
    "ChiefName": "Джашиашвили Давид Андроникович",
    "WorkingHours": [
      {
        "Hours": "выходной",
        "DayOfWeek": "понедельник"
      },
      {
        "Hours": "09:00-18:00",
        "DayOfWeek": "вторник"
      },
      {
        "Hours": "09:00-18:00",
        "DayOfWeek": "среда"
      },
      {
        "Hours": "09:00-18:00",
        "DayOfWeek": "четверг"
      },
      {
        "Hours": "09:00-18:00",
        "DayOfWeek": "пятница"
      },
      {
        "Hours": "09:00-18:00",
        "DayOfWeek": "суббота"
      },
      {
        "Hours": "09:00-18:00",
        "DayOfWeek": "воскресенье"
      }
    ],
    "Name": "Приют для бродячих животны",
    "geoData": {
      "type": "Point",
      "coordinates": [
        37.387938114894,
        55.913662042666
      ]
    }
  },
  {
    "global_id": 167615358,
    "DepartmentalAffiliation": "Префектура Северного административного округа города Москвы",
    "ID": 2,
    "ClarificationOfWorkingHours": "Понедельник санитарный день",
    "AdmArea": "Северный административный округ",
    "District": "Молжаниновский район",
    "Address": "город Москва, Машкинское шоссе, дом 38, строение 1",
    "Phone": [
      {
        "Phone": "(495) 456-74-63"
      }
    ],
    "ChiefName": "Джашиашвили Давид Андроникович",
    "WorkingHours": [
      {
        "Hours": "выходной",
        "DayOfWeek": "понедельник"
      },
      {
        "Hours": "09:00-18:00",
        "DayOfWeek": "вторник"
      },
      {
        "Hours": "09:00-18:00",
        "DayOfWeek": "среда"
      },
      {
        "Hours": "09:00-18:00",
        "DayOfWeek": "четверг"
      },
      {
        "Hours": "09:00-18:00",
        "DayOfWeek": "пятница"
      },
      {
        "Hours": "09:00-18:00",
        "DayOfWeek": "суббота"
      },
      {
        "Hours": "09:00-18:00",
        "DayOfWeek": "воскресенье"
      }
    ],
    "Name": "Приют для бродячих животных",
    "geoData": {
      "type": "Point",
      "coordinates": [
        37.370048373446,
        55.911192400557
      ]
    }
  },
  {
    "global_id": 167717826,
    "DepartmentalAffiliation": "Префектура Юго-Западного административного округа города Москвы",
    "ID": 99,
    "AdmArea": "Юго-Западный административный округ",
    "District": "район Южное Бутово",
    "Address": "город Москва, улица Брусилова, владение 32, строение 1",
    "Phone": [
      {
        "Phone": "(495) 335-17-25"
      }
    ],
    "ChiefName": "Пошешулин Антон Юрьевич",
    "WorkingHours": [
      {
        "Hours": "09:00-18:00",
        "DayOfWeek": "понедельник"
      },
      {
        "Hours": "09:00-18:00",
        "DayOfWeek": "вторник"
      },
      {
        "Hours": "09:00-18:00",
        "DayOfWeek": "среда"
      },
      {
        "Hours": "09:00-18:00",
        "DayOfWeek": "четверг"
      },
      {
        "Hours": "09:00-17:00",
        "DayOfWeek": "пятница"
      },
      {
        "Hours": "выходной",
        "DayOfWeek": "суббота"
      },
      {
        "Hours": "выходной",
        "DayOfWeek": "воскресенье"
      }
    ],
    "Name": "Приют для содержания безнадзорных и бесхозяйных животных в Щербинке ЮЗАО",
    "geoData": {
      "type": "Point",
      "coordinates": [
        37.597124769304,
        55.499222982319
      ]
    }
  },
  {
    "global_id": 167718005,
    "DepartmentalAffiliation": "Префектура Северо-Восточного административного округа города Москвы",
    "ID": 1,
    "AdmArea": "Северо-Восточный административный округ",
    "District": "Ярославский район",
    "Address": "город Москва, улица Красная Сосна, дом 30, строение 8",
    "Phone": [
      {
        "Phone": "(956) 619-83-00"
      }
    ],
    "ChiefName": "Злодеев Евгений Леонидович",
    "WorkingHours": [
      {
        "Hours": "08:00-17:00",
        "DayOfWeek": "понедельник"
      },
      {
        "Hours": "08:00-17:00",
        "DayOfWeek": "вторник"
      },
      {
        "Hours": "08:00-17:00",
        "DayOfWeek": "среда"
      },
      {
        "Hours": "08:00-17:00",
        "DayOfWeek": "четверг"
      },
      {
        "Hours": "08:00-17:00",
        "DayOfWeek": "пятница"
      },
      {
        "Hours": "08:00-17:00",
        "DayOfWeek": "суббота"
      },
      {
        "Hours": "08:00-17:00",
        "DayOfWeek": "воскресенье"
      }
    ],
    "Name": "Приют по содержанию бесхозяйных и безнадзорных животных по улице Красная Сосна, дом 30, строение 8",
    "geoData": {
      "type": "Point",
      "coordinates": [
        37.678370005013,
        55.843497979048
      ]
    }
  },
  {
    "global_id": 167718012,
    "DepartmentalAffiliation": "Префектура Северо-Восточного административного округа города Москвы",
    "ID": 2,
    "AdmArea": "Северо-Восточный административный округ",
    "District": "Бабушкинский район",
    "Address": "улица Искры, владение 23 А",
    "Phone": [
      {
        "Phone": "(495) 619-83-00"
      }
    ],
    "ChiefName": "Злодеев Евгений Леонидович",
    "WorkingHours": [
      {
        "Hours": "08:00-17:00",
        "DayOfWeek": "понедельник"
      },
      {
        "Hours": "08:00-17:00",
        "DayOfWeek": "вторник"
      },
      {
        "Hours": "08:00-17:00",
        "DayOfWeek": "среда"
      },
      {
        "Hours": "08:00-17:00",
        "DayOfWeek": "четверг"
      },
      {
        "Hours": "08:00-17:00",
        "DayOfWeek": "пятница"
      },
      {
        "Hours": "08:00-17:00",
        "DayOfWeek": "суббота"
      },
      {
        "Hours": "08:00-17:00",
        "DayOfWeek": "воскресенье"
      }
    ],
    "Name": "Приют по содержанию бесхозяйных и безнадзорных животных по адресу улица Искры, владение 23 А",
    "geoData": {
      "type": "Point",
      "coordinates": [
        37.654824560166,
        55.863764024994
      ]
    }
  },
  {
    "global_id": 167718015,
    "DepartmentalAffiliation": "Префектура Северо-Восточного административного округа города Москвы",
    "ID": 3,
    "AdmArea": "Северо-Восточный административный округ",
    "District": "Останкинский район",
    "Address": "проезд Дубовой Рощи, владение 23 - 25",
    "Phone": [
      {
        "Phone": "(495) 619-83-00"
      }
    ],
    "ChiefName": "Злодеев Евгений Леонидович",
    "WorkingHours": [
      {
        "Hours": "08:00-17:00",
        "DayOfWeek": "понедельник"
      },
      {
        "Hours": "08:00-17:00",
        "DayOfWeek": "вторник"
      },
      {
        "Hours": "08:00-17:00",
        "DayOfWeek": "среда"
      },
      {
        "Hours": "08:00-17:00",
        "DayOfWeek": "четверг"
      },
      {
        "Hours": "08:00-17:00",
        "DayOfWeek": "пятница"
      },
      {
        "Hours": "08:00-17:00",
        "DayOfWeek": "суббота"
      },
      {
        "Hours": "08:00-17:00",
        "DayOfWeek": "воскресенье"
      }
    ],
    "Name": "Приют по содержанию бесхозяйных и безнадзорных животных по адресу проезд Дубовая Роща, владение 23 - 25",
    "geoData": {
      "type": "Point",
      "coordinates": [
        37.605558908169,
        55.817573731488
      ]
    }
  },
  {
    "global_id": 167762257,
    "DepartmentalAffiliation": "Префектура Южного административного округа города Москвы",
    "ID": 1,
    "AdmArea": "Южный административный округ",
    "District": "район Бирюлёво Западное",
    "Address": "город Москва, Востряковский проезд, дом 10А",
    "Phone": [
      {
        "Phone": "(926) 912-12-93"
      }
    ],
    "ChiefName": "Черкасов Виктор Александрович",
    "WorkingHours": [
      {
        "Hours": "выходной",
        "DayOfWeek": "понедельник"
      },
      {
        "Hours": "выходной",
        "DayOfWeek": "вторник"
      },
      {
        "Hours": "11:00-18:00",
        "DayOfWeek": "среда"
      },
      {
        "Hours": "11:00-18:00",
        "DayOfWeek": "четверг"
      },
      {
        "Hours": "11:00-18:00",
        "DayOfWeek": "пятница"
      },
      {
        "Hours": "10:00-18:00",
        "DayOfWeek": "суббота"
      },
      {
        "Hours": "10:00-18:00",
        "DayOfWeek": "воскресенье"
      }
    ],
    "Name": "Приют для безнадзорных и бесхозяйных животных",
    "geoData": {
      "type": "Point",
      "coordinates": [
        37.616501020764,
        55.581287644085
      ]
    }
  },
  {
    "global_id": 168322745,
    "DepartmentalAffiliation": "Префектура Восточного административного округа города Москвы",
    "ID": 2,
    "ClarificationOfWorkingHours": "Посещение для волонтёров, имеющих пропуска; для желающих взять животное ежедневно 10:00-18:00 при наличии паспорта",
    "AdmArea": "Восточный административный округ",
    "District": "район Косино-Ухтомский",
    "Address": "город Москва, Пехорская улица, дом 1Б",
    "Phone": [
      {
        "Phone": "(916) 720-33-52"
      },
      {
        "Phone": "(905) 583-94-71"
      }
    ],
    "ChiefName": "Марсон Юта Карловна",
    "WorkingHours": [
      {
        "Hours": "10:00-19:00",
        "DayOfWeek": "понедельник"
      },
      {
        "Hours": "10:00-19:00",
        "DayOfWeek": "вторник"
      },
      {
        "Hours": "10:00-19:00",
        "DayOfWeek": "среда"
      },
      {
        "Hours": "закрыто",
        "DayOfWeek": "четверг"
      },
      {
        "Hours": "10:00-19:00",
        "DayOfWeek": "пятница"
      },
      {
        "Hours": "09:00-20:00",
        "DayOfWeek": "суббота"
      },
      {
        "Hours": "09:00-20:00",
        "DayOfWeek": "воскресенье"
      }
    ],
    "Name": "Приют для безнадзорных и бесхозных животных",
    "geoData": {
      "type": "Point",
      "coordinates": [
        37.933327782663,
        55.722450031074
      ]
    }
  }
]
